{
"type": "FeatureCollection",
"crs": { "type": "name", "properties": { "name": "urn:ogc:def:crs:OGC:1.3:CRS84" } },
"features": [
{ "type": "Feature", "properties": { "name": "ALMEIDA & RODRIGUES MANUTENCAO EM INFORMATICA LTDA - ME", "situation": "ATIVA", "neighborhood": "CENTRO", "address": "R AMADOR BUENO", "number": "171", "zip_code": "11.013-151", "city": "SANTOS", "state": "SP", "cnpj": "13.295.386\/0001-58", "status": "OK", "additional_address_details": "SALA 69", "main_activity": "Reparação e manutenção de computadores e de equipamentos periféricos", "latitude": -23.9359716, "longitude": -46.3272156 }, "geometry": { "type": "Point", "coordinates": [ -46.3272156, -23.9359716 ] } },
{ "type": "Feature", "properties": { "name": "MARCIO CESAR FRANCISQUINE SANTOS - ME", "situation": "ATIVA", "neighborhood": "MARAPE", "address": "AV SENADOR PINHEIRO MACHADO", "number": "856", "zip_code": "11.075-002", "city": "SANTOS", "state": "SP", "cnpj": "18.950.028\/0001-55", "status": "OK", "additional_address_details": null, "main_activity": "Restaurantes e similares", "latitude": -23.9617293, "longitude": -46.3454754 }, "geometry": { "type": "Point", "coordinates": [ -46.3454754, -23.9617293 ] } },
{ "type": "Feature", "properties": { "name": "R P LOPES FONSECA", "situation": "ATIVA", "neighborhood": "PONTA DA PRAIA", "address": "PC CORACAO DE MARIA", "number": "23", "zip_code": "11.030-280", "city": "SANTOS", "state": "SP", "cnpj": "58.132.036\/0001-09", "status": "OK", "additional_address_details": null, "main_activity": "Comércio varejista de combustíveis para veículos automotores", "latitude": -23.9868629, "longitude": -46.303085 }, "geometry": { "type": "Point", "coordinates": [ -46.303085, -23.9868629 ] } },
{ "type": "Feature", "properties": { "name": "AUTO POSTO NOVO MILENIO LTDA", "situation": "ATIVA", "neighborhood": "MACUCO", "address": "R CONSELHEIRO RODRIGUES ALVES", "number": "385", "zip_code": "11.015-203", "city": "SANTOS", "state": "SP", "cnpj": "03.542.311\/0001-70", "status": "OK", "additional_address_details": null, "main_activity": "Comércio varejista de combustíveis para veículos automotores", "latitude": -23.9560027, "longitude": -46.3215562 }, "geometry": { "type": "Point", "coordinates": [ -46.3215562, -23.9560027 ] } },
{ "type": "Feature", "properties": { "name": "CHURRASCARIA E PIZZARIA MAXIM'S LTDA - ME", "situation": "ATIVA", "neighborhood": "BOQUEIRAO", "address": "AV CONSELHEIRO NEBIAS", "number": "656", "zip_code": "11.045-002", "city": "SANTOS", "state": "SP", "cnpj": "19.396.916\/0001-30", "status": "OK", "additional_address_details": null, "main_activity": "Restaurantes e similares", "latitude": -23.9628794, "longitude": -46.3237434 }, "geometry": { "type": "Point", "coordinates": [ -46.3237434, -23.9628794 ] } },
{ "type": "Feature", "properties": { "name": "HOTEL DE TURISMO PARQUE BALNEARIO LTDA", "situation": "ATIVA", "neighborhood": "GONZAGA", "address": "AV GENERAL FRANCISCO GLICERIO", "number": "206", "zip_code": "11.065-400", "city": "SANTOS", "state": "SP", "cnpj": "46.785.028\/0002-63", "status": "OK", "additional_address_details": null, "main_activity": "Restaurantes e similares", "latitude": -23.9584703, "longitude": -46.3348598 }, "geometry": { "type": "Point", "coordinates": [ -46.3348598, -23.9584703 ] } },
{ "type": "Feature", "properties": { "name": "AUTO POSTO BRUMAR LTDA", "situation": "ATIVA", "neighborhood": "GONZAGA", "address": "AV ANA COSTA", "number": "341", "zip_code": "11.055-000", "city": "SANTOS", "state": "SP", "cnpj": "00.135.799\/0001-23", "status": "OK", "additional_address_details": null, "main_activity": "Comércio varejista de combustíveis para veículos automotores", "latitude": -23.9595345, "longitude": -46.3318234 }, "geometry": { "type": "Point", "coordinates": [ -46.3318234, -23.9595345 ] } },
{ "type": "Feature", "properties": { "name": "ATLANTICO GOLDEN APART HOTEL LTDA.", "situation": "ATIVA", "neighborhood": "GONZAGA", "address": "R JORGE TIBIRICA", "number": "40", "zip_code": "11.055-250", "city": "SANTOS", "state": "SP", "cnpj": "14.419.110\/0001-05", "status": "OK", "additional_address_details": null, "main_activity": "Apart-hotéis", "latitude": -23.9689558, "longitude": -46.3301634 }, "geometry": { "type": "Point", "coordinates": [ -46.3301634, -23.9689558 ] } },
{ "type": "Feature", "properties": { "name": "COOPERATIVA DOS CONDUTORES AUTONOMOS DE VEICULOS RODOVIARIOS DA BAIXADA SANTISTA", "situation": "ATIVA", "neighborhood": "MACUCO", "address": "R BORGES", "number": "256", "zip_code": "11.015-147", "city": "SANTOS", "state": "SP", "cnpj": "55.322.804\/0001-07", "status": "OK", "additional_address_details": null, "main_activity": "Transporte rodoviário coletivo de passageiros, com itinerário fixo, municipal", "latitude": -23.9533644, "longitude": -46.3203698 }, "geometry": { "type": "Point", "coordinates": [ -46.3203698, -23.9533644 ] } },
{ "type": "Feature", "properties": { "name": "R.P.W. - EQUIPAMENTOS PARA ESCRITORIO LTDA - EPP", "situation": "ATIVA", "neighborhood": "CENTRO", "address": "R VISCONDE DE SAO LEOPOLDO", "number": "25", "zip_code": "11.010-201", "city": "SANTOS", "state": "SP", "cnpj": "44.984.912\/0001-10", "status": "OK", "additional_address_details": null, "main_activity": "Comércio varejista especializado de equipamentos e suprimentos de informática", "latitude": -23.9342791, "longitude": -46.3311942 }, "geometry": { "type": "Point", "coordinates": [ -46.331194200000013, -23.9342791 ] } },
{ "type": "Feature", "properties": { "name": "ASSOC. DOS COND. AUTON. DE TAXIS DE SANTOS RADIO TAXI", "situation": "ATIVA", "neighborhood": "VILA MATHIAS", "address": "R DA CONSTITUICAO", "number": "543", "zip_code": "11.015-473", "city": "SANTOS", "state": "SP", "cnpj": "55.672.489\/0001-30", "status": "OK", "additional_address_details": null, "main_activity": "Outras atividades associativas profissionais", "latitude": -23.9680978, "longitude": -46.3599021 }, "geometry": { "type": "Point", "coordinates": [ -46.3599021, -23.9680978 ] } },
{ "type": "Feature", "properties": { "name": "POSTO SANTO SOL LTDA", "situation": "ATIVA", "neighborhood": "SABOO", "address": "AV MARTINS FONTES", "number": "975", "zip_code": "11.085-000", "city": "SANTOS", "state": "SP", "cnpj": "17.934.145\/0001-62", "status": "OK", "additional_address_details": null, "main_activity": "Comércio varejista de combustíveis para veículos automotores", "latitude": -23.9307455, "longitude": -46.3500947 }, "geometry": { "type": "Point", "coordinates": [ -46.3500947, -23.9307455 ] } },
{ "type": "Feature", "properties": { "name": "COMPANHIA BRASILEIRA DE DISTRIBUICAO", "situation": "ATIVA", "neighborhood": "GONZAGA", "address": "AV ANA COSTA", "number": "318", "zip_code": "11.060-000", "city": "SANTOS", "state": "SP", "cnpj": "47.508.411\/1253-66", "status": "OK", "additional_address_details": "340, PARTE", "main_activity": "Comércio varejista de combustíveis para veículos automotores", "latitude": -23.9582212, "longitude": -46.3318448 }, "geometry": { "type": "Point", "coordinates": [ -46.3318448, -23.9582212 ] } },
{ "type": "Feature", "properties": { "name": "CAR RENTAL SYSTEMS DO BRASIL LOCACAO DE VEICULOS LTDA", "situation": "ATIVA", "neighborhood": "VILA MATHIAS", "address": "AV CONSELHEIRO NEBIAS", "number": "351", "zip_code": "11.015-002", "city": "SANTOS", "state": "SP", "cnpj": "00.237.003\/0083-90", "status": "OK", "additional_address_details": "CASA", "main_activity": "Locação de automóveis sem condutor", "latitude": -23.9532356, "longitude": -46.3224759 }, "geometry": { "type": "Point", "coordinates": [ -46.3224759, -23.95323560000001 ] } },
{ "type": "Feature", "properties": { "name": "ADALBERTO NASCIMENTO DOS SANTOS 00243924801", "situation": "ATIVA", "neighborhood": "PONTA DA PRAIA", "address": "R CORONEL PEDRO ARBUES", "number": "235", "zip_code": "11.035-050", "city": "SANTOS", "state": "SP", "cnpj": "18.128.639\/0001-12", "status": "OK", "additional_address_details": "APT 31", "main_activity": "Edição de livros", "latitude": -23.9785837, "longitude": -46.3013487 }, "geometry": { "type": "Point", "coordinates": [ -46.301348700000013, -23.9785837 ] } },
{ "type": "Feature", "properties": { "name": "CODY MATERIAIS E SERVICOS LTDA", "situation": "ATIVA", "neighborhood": "POMPEIA", "address": "AV PINHEIRO MACHADO", "number": "1013", "zip_code": "11.075-003", "city": "SANTOS", "state": "SP", "cnpj": "14.899.446\/0001-04", "status": "OK", "additional_address_details": null, "main_activity": "Comércio varejista de artigos de papelaria", "latitude": -23.9662379, "longitude": -46.3454523 }, "geometry": { "type": "Point", "coordinates": [ -46.3454523, -23.9662379 ] } },
{ "type": "Feature", "properties": { "name": "ALBA ESTACIONAMENTO LTDA - ME", "situation": "ATIVA", "neighborhood": "CENTRO", "address": "PC JOSE BONIFACIO", "number": "51", "zip_code": "11.013-190", "city": "SANTOS", "state": "SP", "cnpj": "54.355.904\/0001-69", "status": "OK", "additional_address_details": null, "main_activity": "Estacionamento de veículos", "latitude": -23.9366082, "longitude": -46.3255141 }, "geometry": { "type": "Point", "coordinates": [ -46.3255141, -23.9366082 ] } },
{ "type": "Feature", "properties": { "name": "AUTO POSTO FORMULA 3 LTDA", "situation": "ATIVA", "neighborhood": "MACUCO", "address": "R SILVA JARDIM", "number": "380", "zip_code": "11.015-020", "city": "SANTOS", "state": "SP", "cnpj": "58.237.538\/0001-02", "status": "OK", "additional_address_details": null, "main_activity": "Comércio varejista de combustíveis para veículos automotores", "latitude": -23.9548025, "longitude": -46.3199606 }, "geometry": { "type": "Point", "coordinates": [ -46.319960599999987, -23.9548025 ] } },
{ "type": "Feature", "properties": { "name": "CLEAN CAR SUPER LAVAGEM AUTOMATICA E COMERCIO LTDA", "situation": "ATIVA", "neighborhood": "GONZAGA", "address": "AV WASHINGTON LUIZ", "number": "434", "zip_code": "11.055-000", "city": "SANTOS", "state": "SP", "cnpj": "58.267.402\/0001-37", "status": "OK", "additional_address_details": null, "main_activity": "Comércio varejista de combustíveis para veículos automotores", "latitude": -23.9633333, "longitude": -46.3285761 }, "geometry": { "type": "Point", "coordinates": [ -46.3285761, -23.9633333 ] } },
{ "type": "Feature", "properties": { "name": "AUTO POSTO JARDIM ANCHIETA LIMITADA", "situation": "ATIVA", "neighborhood": "JARDIM PIRATININGA", "address": "V ANCHIETA", "number": "S\/N", "zip_code": "11.095-000", "city": "SANTOS", "state": "SP", "cnpj": "49.949.233\/0001-24", "status": "OK", "additional_address_details": "KM 62,5", "main_activity": "Comércio varejista de combustíveis para veículos automotores", "latitude": -23.7957929, "longitude": -46.5120247 }, "geometry": { "type": "Point", "coordinates": [ -46.512024700000012, -23.7957929 ] } },
{ "type": "Feature", "properties": { "name": "WORK INTERNET LTDA - ME", "situation": "ATIVA", "neighborhood": "JOSE MENINO", "address": "AV PRESIDENTE WILSON", "number": "132", "zip_code": "11.065-201", "city": "SANTOS", "state": "SP", "cnpj": "08.987.270\/0001-40", "status": "OK", "additional_address_details": "AP. 104-A", "main_activity": "Consultoria em tecnologia da informação", "latitude": -23.9674233, "longitude": -46.3465736 }, "geometry": { "type": "Point", "coordinates": [ -46.3465736, -23.9674233 ] } },
{ "type": "Feature", "properties": { "name": "EDITORA ECOTURISMO LTDA. - ME", "situation": "ATIVA", "neighborhood": "EMBARE", "address": "AV DR. PEDRO LESSA", "number": "2721", "zip_code": "11.025-003", "city": "SANTOS", "state": "SP", "cnpj": "15.843.303\/0001-43", "status": "OK", "additional_address_details": "SALA 21", "main_activity": "Edição de revistas", "latitude": -23.966207, "longitude": -46.31616 }, "geometry": { "type": "Point", "coordinates": [ -46.31616, -23.966207 ] } },
{ "type": "Feature", "properties": { "name": "AUTO POSTO CANAL OK LTDA", "situation": "ATIVA", "neighborhood": "MARAPE", "address": "AV SEN PINHEIRO MACHADO", "number": "723", "zip_code": "11.075-003", "city": "SANTOS", "state": "SP", "cnpj": "58.186.602\/0001-65", "status": "OK", "additional_address_details": null, "main_activity": "Comércio varejista de combustíveis para veículos automotores", "latitude": -23.9584073, "longitude": -46.3444408 }, "geometry": { "type": "Point", "coordinates": [ -46.3444408, -23.9584073 ] } },
{ "type": "Feature", "properties": { "name": "MUNICIPIO DE SANTOS", "situation": "ATIVA", "neighborhood": "CENTRO", "address": "PC MAUA", "number": "SN", "zip_code": "11.010-900", "city": "SANTOS", "state": "SP", "cnpj": "58.200.015\/0001-83", "status": "OK", "additional_address_details": null, "main_activity": "Administração pública em geral", "latitude": -23.9338729, "longitude": -46.3288268 }, "geometry": { "type": "Point", "coordinates": [ -46.328826799999987, -23.9338729 ] } },
{ "type": "Feature", "properties": { "name": "A TRIBUNA DE SANTOS JORNAL E EDITORA LIMITADA", "situation": "ATIVA", "neighborhood": "CENTRO", "address": "R JOAO PESSOA 129", "number": "129", "zip_code": "11.013-900", "city": "SANTOS", "state": "SP", "cnpj": "58.183.401\/0001-04", "status": "OK", "additional_address_details": "TERREO;", "main_activity": "Edição integrada à impressão de jornais diários", "latitude": -23.9347986, "longitude": -46.3270545 }, "geometry": { "type": "Point", "coordinates": [ -46.3270545, -23.9347986 ] } },
{ "type": "Feature", "properties": { "name": "POSTO GAIVOTA LTDA", "situation": "ATIVA", "neighborhood": "GONZAGA", "address": "AV ANA COSTA", "number": "427", "zip_code": "11.060-003", "city": "SANTOS", "state": "SP", "cnpj": "51.645.646\/0001-67", "status": "OK", "additional_address_details": null, "main_activity": "Comércio varejista de combustíveis para veículos automotores", "latitude": -23.9631931, "longitude": -46.3322595 }, "geometry": { "type": "Point", "coordinates": [ -46.3322595, -23.9631931 ] } },
{ "type": "Feature", "properties": { "name": "DIEGO SIMOES SANCHES 22143799837", "situation": "ATIVA", "neighborhood": "MARAPE", "address": "R CARLOS GOMES", "number": "164", "zip_code": "11.075-672", "city": "SANTOS", "state": "SP", "cnpj": "21.391.435\/0001-84", "status": "OK", "additional_address_details": "APT 87", "main_activity": "Filmagem de festas e eventos", "latitude": -23.9588031, "longitude": -46.3419544 }, "geometry": { "type": "Point", "coordinates": [ -46.3419544, -23.9588031 ] } },
{ "type": "Feature", "properties": { "name": "HOTEL DE TURISMO PARQUE BALNEARIO LTDA", "situation": "ATIVA", "neighborhood": "GONZAGA", "address": "AV ANA COSTA", "number": "555", "zip_code": "11.060-003", "city": "SANTOS", "state": "SP", "cnpj": "46.785.028\/0001-82", "status": "OK", "additional_address_details": null, "main_activity": "Hotéis", "latitude": -23.9689499, "longitude": -46.3324091 }, "geometry": { "type": "Point", "coordinates": [ -46.3324091, -23.9689499 ] } },
{ "type": "Feature", "properties": { "name": "AUTO POSTO VIA UNO LTDA", "situation": "ATIVA", "neighborhood": "VILA MATHIAS", "address": "AV SENADOR PINHEIRO MACHADO", "number": "283", "zip_code": "11.075-907", "city": "SANTOS", "state": "SP", "cnpj": "08.809.528\/0001-18", "status": "OK", "additional_address_details": null, "main_activity": "Comércio varejista de combustíveis para veículos automotores", "latitude": -23.9483487, "longitude": -46.3385292 }, "geometry": { "type": "Point", "coordinates": [ -46.3385292, -23.9483487 ] } },
{ "type": "Feature", "properties": { "name": "AUTO POSTO TAMBURELLO LTDA", "situation": "ATIVA", "neighborhood": "MACUCO", "address": "AV AFONSO PENA", "number": "227", "zip_code": "11.020-001", "city": "SANTOS", "state": "SP", "cnpj": "01.277.960\/0001-66", "status": "OK", "additional_address_details": null, "main_activity": "Comércio varejista de combustíveis para veículos automotores", "latitude": -23.9626638, "longitude": -46.3141466 }, "geometry": { "type": "Point", "coordinates": [ -46.3141466, -23.9626638 ] } },
{ "type": "Feature", "properties": { "name": "PRINTMAIS EDITORA E GRAFICA LTDA - EPP", "situation": "ATIVA", "neighborhood": "VILA MATHIAS", "address": "R CAMPSO MELO", "number": "201", "zip_code": "11.015-011", "city": "SANTOS", "state": "SP", "cnpj": "10.735.556\/0001-80", "status": "OK", "additional_address_details": null, "main_activity": "Promoção de vendas", "latitude": -23.9491357, "longitude": -46.3205592 }, "geometry": { "type": "Point", "coordinates": [ -46.3205592, -23.9491357 ] } },
{ "type": "Feature", "properties": { "name": "ESTACIONAMENTO ELOS DE OURO LTDA - ME", "situation": "ATIVA", "neighborhood": "VILA MATHIAS", "address": "R SILVA JARDIM", "number": "39", "zip_code": "11.015-021", "city": "SANTOS", "state": "SP", "cnpj": "13.153.667\/0001-76", "status": "OK", "additional_address_details": null, "main_activity": "Estacionamento de veículos", "latitude": -23.9438032, "longitude": -46.3186675 }, "geometry": { "type": "Point", "coordinates": [ -46.3186675, -23.9438032 ] } },
{ "type": "Feature", "properties": { "name": "VILA RICA PARK LOCACAO DE VEICULOS LTDA", "situation": "ATIVA", "neighborhood": "MACUCO", "address": "R CONSELHEIRO RODRIGUES ALVES", "number": "387", "zip_code": "11.015-203", "city": "SANTOS", "state": "SP", "cnpj": "60.011.343\/0001-83", "status": "OK", "additional_address_details": null, "main_activity": "Locação de automóveis sem condutor", "latitude": -23.956102, "longitude": -46.3217037 }, "geometry": { "type": "Point", "coordinates": [ -46.3217037, -23.956102 ] } },
{ "type": "Feature", "properties": { "name": "CRACCO & DIAS LTDA - EPP", "situation": "ATIVA", "neighborhood": "VILA MATHIAS", "address": "R JULIO DE MESQUITA", "number": "192", "zip_code": "11.075-221", "city": "SANTOS", "state": "SP", "cnpj": "02.127.185\/0001-25", "status": "OK", "additional_address_details": null, "main_activity": "Atividades de franqueadas do Correio Nacional", "latitude": -23.9441235, "longitude": -46.3279921 }, "geometry": { "type": "Point", "coordinates": [ -46.3279921, -23.9441235 ] } },
{ "type": "Feature", "properties": { "name": "EMPRESA BRASILEIRA DE CORREIOS E TELEGRAFOS", "situation": "ATIVA", "neighborhood": "CENTRO", "address": "R CIDADE DE TOLEDO", "number": "41", "zip_code": "11.010-010", "city": "SANTOS", "state": "SP", "cnpj": "34.028.316\/3122-61", "status": "OK", "additional_address_details": "TERREO", "main_activity": "Atividades do Correio Nacional", "latitude": -23.9332533, "longitude": -46.3279785 }, "geometry": { "type": "Point", "coordinates": [ -46.3279785, -23.9332533 ] } },
{ "type": "Feature", "properties": { "name": "M. A. DA SILVA MOREIRA & A. DA SILVA MOREIRA LTDA - ME", "situation": "ATIVA", "neighborhood": "CENTRO", "address": "PC DA REPUBLICA", "number": "57", "zip_code": "11.013-010", "city": "SANTOS", "state": "SP", "cnpj": "03.202.522\/0001-64", "status": "OK", "additional_address_details": null, "main_activity": "Estacionamento de veículos", "latitude": -23.9330943, "longitude": -46.3258591 }, "geometry": { "type": "Point", "coordinates": [ -46.3258591, -23.9330943 ] } },
{ "type": "Feature", "properties": { "name": "C&F JACINTHO FARAHTE RESTAURANTE LTDA - ME", "situation": "ATIVA", "neighborhood": "GONZAGA", "address": "AV ANA COSTA", "number": "549", "zip_code": "11.060-003", "city": "SANTOS", "state": "SP", "cnpj": "09.170.835\/0001-64", "status": "OK", "additional_address_details": "LOJA 08 3 PISO", "main_activity": "Restaurantes e similares", "latitude": -23.9688131, "longitude": -46.3329604 }, "geometry": { "type": "Point", "coordinates": [ -46.3329604, -23.9688131 ] } },
{ "type": "Feature", "properties": { "name": "D.F. BARBARO RESTAURANTE LTDA - EPP", "situation": "ATIVA", "neighborhood": "CARUARA", "address": "ROD RIO SANTOS", "number": "S\/N", "zip_code": "11.200-000", "city": "SANTOS", "state": "SP", "cnpj": "08.300.383\/0001-25", "status": "OK", "additional_address_details": "KM 233 + 450 MTS", "main_activity": "Restaurantes e similares", "latitude": -23.8853273, "longitude": -46.193639 }, "geometry": { "type": "Point", "coordinates": [ -46.193639, -23.8853273 ] } },
{ "type": "Feature", "properties": { "name": "CONDE & DELL ARINGA - DESENVOLVIMENTO DE SOFTWARES LTDA - EPP", "situation": "ATIVA", "neighborhood": "VILA MATIAS", "address": "AV ANA COSTA", "number": "222", "zip_code": "11.060-000", "city": "SANTOS", "state": "SP", "cnpj": "09.613.772\/0001-73", "status": "OK", "additional_address_details": "CONJ: 93;", "main_activity": "Desenvolvimento de programas de computador sob encomenda", "latitude": -23.9535132, "longitude": -46.3313172 }, "geometry": { "type": "Point", "coordinates": [ -46.3313172, -23.9535132 ] } },
{ "type": "Feature", "properties": { "name": "AUTO POSTO SANTOUR LTDA", "situation": "ATIVA", "neighborhood": "JABAQUARA", "address": "AV DR CLAUDIO L DA COSTA", "number": "291", "zip_code": "11.075-101", "city": "SANTOS", "state": "SP", "cnpj": "00.496.527\/0001-59", "status": "OK", "additional_address_details": null, "main_activity": "Comércio varejista de combustíveis para veículos automotores", "latitude": -23.9458523, "longitude": -46.3351061 }, "geometry": { "type": "Point", "coordinates": [ -46.3351061, -23.9458523 ] } },
{ "type": "Feature", "properties": { "name": "CENTRO AUTOMOTIVO GOVERNADOR MARIO COVAS LTDA", "situation": "ATIVA", "neighborhood": "SABOO", "address": "R DR. MARTINS FONTES", "number": "334", "zip_code": "11.085-000", "city": "SANTOS", "state": "SP", "cnpj": "04.483.414\/0001-70", "status": "OK", "additional_address_details": null, "main_activity": "Comércio varejista de combustíveis para veículos automotores", "latitude": -23.9306533, "longitude": -46.3392839 }, "geometry": { "type": "Point", "coordinates": [ -46.3392839, -23.9306533 ] } },
{ "type": "Feature", "properties": { "name": "COELHO E KOKUBU LTDA - EPP", "situation": "ATIVA", "neighborhood": "GONZAGA", "address": "AV ANA COSTA", "number": "380", "zip_code": "11.060-906", "city": "SANTOS", "state": "SP", "cnpj": "69.076.586\/0001-74", "status": "OK", "additional_address_details": "LOJA 8 B", "main_activity": "Comércio varejista especializado de equipamentos e suprimentos de informática", "latitude": -23.9606969, "longitude": -46.3321496 }, "geometry": { "type": "Point", "coordinates": [ -46.3321496, -23.9606969 ] } },
{ "type": "Feature", "properties": { "name": "DOMINGUES & DOMINGUES - ASSESSORIA IMOBILIARIA LTDA - EPP", "situation": "ATIVA", "neighborhood": "JOSE MENINO", "address": "R MARANHAO", "number": "15", "zip_code": "11.065-410", "city": "SANTOS", "state": "SP", "cnpj": "08.194.837\/0001-20", "status": "OK", "additional_address_details": null, "main_activity": "Gestão e administração da propriedade imobiliária", "latitude": -23.9645586, "longitude": -46.3442571 }, "geometry": { "type": "Point", "coordinates": [ -46.3442571, -23.9645586 ] } },
{ "type": "Feature", "properties": { "name": "AUTO POSTO VALONGO DE SANTOS LTDA", "situation": "ATIVA", "neighborhood": "CENTRO", "address": "R VISCONDE DE SAO LEOPOLDO", "number": "350", "zip_code": "11.010-200", "city": "SANTOS", "state": "SP", "cnpj": "11.102.705\/0001-36", "status": "OK", "additional_address_details": null, "main_activity": "Comércio varejista de combustíveis para veículos automotores", "latitude": -23.9330396, "longitude": -46.3341915 }, "geometry": { "type": "Point", "coordinates": [ -46.3341915, -23.9330396 ] } },
{ "type": "Feature", "properties": { "name": "BCMG INTERNET LTDA", "situation": "ATIVA", "neighborhood": "GONZAGA", "address": "AV ANA COSTA", "number": "121", "zip_code": "11.060-001", "city": "SANTOS", "state": "SP", "cnpj": "04.964.902\/0001-07", "status": "OK", "additional_address_details": "CONJ. 91", "main_activity": "Provedores de acesso às redes de comunicações", "latitude": -23.9489255, "longitude": -46.3305251 }, "geometry": { "type": "Point", "coordinates": [ -46.3305251, -23.9489255 ] } },
{ "type": "Feature", "properties": { "name": "DEMAR GRAFICA EDITORA EIRELI", "situation": "ATIVA", "neighborhood": "VILA MATHIAS", "address": "R DONA LUISA MACUCO", "number": "57", "zip_code": "11.015-060", "city": "SANTOS", "state": "SP", "cnpj": "67.027.698\/0001-00", "status": "OK", "additional_address_details": "59", "main_activity": "Impressão de material para outros usos", "latitude": -23.9460163, "longitude": -46.3199203 }, "geometry": { "type": "Point", "coordinates": [ -46.3199203, -23.9460163 ] } },
{ "type": "Feature", "properties": { "name": "ESTACIONAMENTO BANDEIRANTES LTDA - ME", "situation": "ATIVA", "neighborhood": "CENTRO", "address": "PC JOSE BONIFACIO", "number": "1", "zip_code": "11.013-190", "city": "SANTOS", "state": "SP", "cnpj": "52.249.968\/0002-30", "status": "OK", "additional_address_details": null, "main_activity": "Estacionamento de veículos", "latitude": -23.9364769, "longitude": -46.3255048 }, "geometry": { "type": "Point", "coordinates": [ -46.3255048, -23.9364769 ] } },
{ "type": "Feature", "properties": { "name": "MENDES & PEDRO SOCIEDADE DE ADVOGADOS - ME", "situation": "ATIVA", "neighborhood": "CAMPO GRANDE", "address": "R AUGUSTO PAULINO", "number": "34", "zip_code": "11.075-370", "city": "SANTOS", "state": "SP", "cnpj": "09.230.540\/0001-36", "status": "OK", "additional_address_details": null, "main_activity": "Serviços advocatícios", "latitude": -23.9538202, "longitude": -46.3330922 }, "geometry": { "type": "Point", "coordinates": [ -46.3330922, -23.9538202 ] } },
{ "type": "Feature", "properties": { "name": "ESTACIONAMENTO SANTISTA LTDA - ME", "situation": "ATIVA", "neighborhood": "CENTRO", "address": "R GENERAL CAMARA", "number": "169", "zip_code": "11.010-121", "city": "SANTOS", "state": "SP", "cnpj": "54.356.605\/0001-49", "status": "OK", "additional_address_details": null, "main_activity": "Estacionamento de veículos", "latitude": -23.9343385, "longitude": -46.3248535 }, "geometry": { "type": "Point", "coordinates": [ -46.3248535, -23.93433850000001 ] } },
{ "type": "Feature", "properties": { "name": "MAFADI COMERCIO DE PRODUTOS AUTOMOTIVOS LTDA - EPP", "situation": "ATIVA", "neighborhood": "CHICO DE PAULA", "address": "AV NOSSA SENHORA DE FATIMA", "number": "673", "zip_code": "11.085-203", "city": "SANTOS", "state": "SP", "cnpj": "11.063.356\/0001-90", "status": "OK", "additional_address_details": null, "main_activity": "Comércio varejista de combustíveis para veículos automotores", "latitude": -23.9451659, "longitude": -46.3683977 }, "geometry": { "type": "Point", "coordinates": [ -46.3683977, -23.9451659 ] } },
{ "type": "Feature", "properties": { "name": "ASSOCIACAO DISK - TAXI RADIO TAXI DE SANTOS", "situation": "ATIVA", "neighborhood": "VILA MATHIAS", "address": "R JOAQUIM NABUCO", "number": "59", "zip_code": "11.015-460", "city": "SANTOS", "state": "SP", "cnpj": "05.264.265\/0001-10", "status": "OK", "additional_address_details": null, "main_activity": "Atividades associativas não especificadas anteriormente", "latitude": -23.9480119, "longitude": -46.3245007 }, "geometry": { "type": "Point", "coordinates": [ -46.324500699999987, -23.9480119 ] } },
{ "type": "Feature", "properties": { "name": "AA MARTINS GRAFICA EDITORA DIGITAL EIRELI - ME", "situation": "ATIVA", "neighborhood": "VILA MATIAS", "address": "R LOWNDES", "number": "224", "zip_code": "11.015-080", "city": "SANTOS", "state": "SP", "cnpj": "09.334.649\/0001-13", "status": "OK", "additional_address_details": null, "main_activity": "Impressão de material para uso publicitário", "latitude": -23.9493656, "longitude": -46.3202827 }, "geometry": { "type": "Point", "coordinates": [ -46.3202827, -23.9493656 ] } },
{ "type": "Feature", "properties": { "name": "EMPORIO DOM JOSE LTDA - EPP", "situation": "ATIVA", "neighborhood": "EMBARE", "address": "R CONSELHEIRO LAFAIETE", "number": "03", "zip_code": "11.040-280", "city": "SANTOS", "state": "SP", "cnpj": "11.925.157\/0001-44", "status": "OK", "additional_address_details": null, "main_activity": "Fabricação de produtos de padaria e confeitaria com predominância de produção própria", "latitude": -23.9712201, "longitude": -46.3197931 }, "geometry": { "type": "Point", "coordinates": [ -46.319793100000012, -23.9712201 ] } },
{ "type": "Feature", "properties": { "name": "Y3 - MARKETING LTDA", "situation": "ATIVA", "neighborhood": "CENTRO", "address": "R AMADOR BUENO", "number": "59", "zip_code": "11.013-151", "city": "SANTOS", "state": "SP", "cnpj": "17.936.107\/0001-49", "status": "OK", "additional_address_details": "CONJ: 53;", "main_activity": "Marketing direto", "latitude": -23.9353653, "longitude": -46.3301952 }, "geometry": { "type": "Point", "coordinates": [ -46.330195200000013, -23.9353653 ] } },
{ "type": "Feature", "properties": { "name": "AUTO POSTO BARTOLOMEU DE GUSMAO II LTDA.", "situation": "ATIVA", "neighborhood": "APARECIDA", "address": "AV BARTOLOMEU DE GUSMAO", "number": "131", "zip_code": "11.045-401", "city": "SANTOS", "state": "SP", "cnpj": "18.018.793\/0001-31", "status": "OK", "additional_address_details": null, "main_activity": "Comércio varejista de combustíveis para veículos automotores", "latitude": -23.9836825, "longitude": -46.309288 }, "geometry": { "type": "Point", "coordinates": [ -46.309288, -23.9836825 ] } },
{ "type": "Feature", "properties": { "name": "CAMARGO & KUBACKI LTDA - ME", "situation": "ATIVA", "neighborhood": "CENTRO", "address": "PC AZEVEDO JUNIOR", "number": "22\/23", "zip_code": "11.010-030", "city": "SANTOS", "state": "SP", "cnpj": "51.679.330\/0001-96", "status": "OK", "additional_address_details": null, "main_activity": "Estacionamento de veículos", "latitude": -23.9678823, "longitude": -46.3288865 }, "geometry": { "type": "Point", "coordinates": [ -46.3288865, -23.9678823 ] } },
{ "type": "Feature", "properties": { "name": "ELUX S.S. EXPRESSO LUXO SAO PAULO SANTOS LTDA.", "situation": "ATIVA", "neighborhood": "CENTRO", "address": "PC DOS ANDRADAS", "number": "45", "zip_code": "11.010-100", "city": "SANTOS", "state": "SP", "cnpj": "61.586.160\/0003-10", "status": "OK", "additional_address_details": "TERREO", "main_activity": "Transporte rodoviário coletivo de passageiros, com itinerário fixo, intermunicipal em região metropolitana", "latitude": -23.9353488, "longitude": -46.3328613 }, "geometry": { "type": "Point", "coordinates": [ -46.3328613, -23.9353488 ] } },
{ "type": "Feature", "properties": { "name": "TECHNOTEL ASSOCIADOS EIRELI", "situation": "ATIVA", "neighborhood": "GONZAGA", "address": "R JORGE TIBIRICA", "number": "41", "zip_code": "11.055-250", "city": "SANTOS", "state": "SP", "cnpj": "00.034.542\/0001-85", "status": "OK", "additional_address_details": "COBERTURA", "main_activity": "Serviços combinados de escritório e apoio administrativo", "latitude": -23.9695336, "longitude": -46.3303496 }, "geometry": { "type": "Point", "coordinates": [ -46.330349600000012, -23.9695336 ] } },
{ "type": "Feature", "properties": { "name": "FERNANDA DO LAGO CECCONI MELLA LOPEZ - ME", "situation": "ATIVA", "neighborhood": "CAMPO GRANDE", "address": "R EVARISTO DA VEIGA", "number": "99", "zip_code": "11.075-660", "city": "SANTOS", "state": "SP", "cnpj": "00.362.853\/0001-73", "status": "OK", "additional_address_details": null, "main_activity": "Restaurantes e similares", "latitude": -23.9583804, "longitude": -46.3367481 }, "geometry": { "type": "Point", "coordinates": [ -46.3367481, -23.9583804 ] } },
{ "type": "Feature", "properties": { "name": "ARMAZEN 29 LTDA - ME", "situation": "ATIVA", "neighborhood": "BOQUEIRAO", "address": "R PINDORAMA", "number": "29", "zip_code": "11.045-330", "city": "SANTOS", "state": "SP", "cnpj": "00.640.022\/0001-16", "status": "OK", "additional_address_details": "LJ 1", "main_activity": "Restaurantes e similares", "latitude": -23.9699325, "longitude": -46.3284203 }, "geometry": { "type": "Point", "coordinates": [ -46.3284203, -23.9699325 ] } },
{ "type": "Feature", "properties": { "name": "S.P.R. LOCACAO E SERVICOS LTDA.", "situation": "ATIVA", "neighborhood": "CHICO DE PAULA", "address": "AV NOSSA SENHORA DE FATIMA", "number": "168", "zip_code": "11.085-200", "city": "SANTOS", "state": "SP", "cnpj": "00.808.652\/0001-57", "status": "OK", "additional_address_details": "PAVILHAO 2", "main_activity": "Locação de automóveis sem condutor", "latitude": -23.9331809, "longitude": -46.3586647 }, "geometry": { "type": "Point", "coordinates": [ -46.358664700000013, -23.9331809 ] } },
{ "type": "Feature", "properties": { "name": "S K F - COMERCIO DE ALIMENTOS LTDA - EPP", "situation": "ATIVA", "neighborhood": "GONZAGA", "address": "AV MAL FLORIANO PEIXOTO", "number": "11", "zip_code": "11.060-301", "city": "SANTOS", "state": "SP", "cnpj": "00.981.580\/0001-45", "status": "OK", "additional_address_details": null, "main_activity": "Lanchonetes, casas de chá, de sucos e similares", "latitude": -23.9673937, "longitude": -46.3334892 }, "geometry": { "type": "Point", "coordinates": [ -46.3334892, -23.9673937 ] } },
{ "type": "Feature", "properties": { "name": "RESTAURANTE PRAIA GONZAGA LTDA - ME", "situation": "ATIVA", "neighborhood": "GONZAGA", "address": "AV MAL FLORIANO PEIXOTO", "number": "104", "zip_code": "11.060-300", "city": "SANTOS", "state": "SP", "cnpj": "01.131.669\/0001-85", "status": "OK", "additional_address_details": null, "main_activity": "Restaurantes e similares", "latitude": -23.96679, "longitude": -46.3369148 }, "geometry": { "type": "Point", "coordinates": [ -46.3369148, -23.96679 ] } },
{ "type": "Feature", "properties": { "name": "CLIO LIVRARIA COMERCIAL LTDA EM RECUPERACAO JUDICIAL", "situation": "ATIVA", "neighborhood": "OUTEIRINHOS", "address": "AV CANDIDO GAFREE", "number": "S\/N", "zip_code": "11.013-240", "city": "SANTOS", "state": "SP", "cnpj": "01.164.256\/0019-26", "status": "OK", "additional_address_details": "ARMZ 25 INTERNO DO PORTO DE SANTOS LOJA 13 - LADO EXTERNO", "main_activity": "Comércio varejista de livros", "latitude": -23.9678823, "longitude": -46.3288865 }, "geometry": { "type": "Point", "coordinates": [ -46.3288865, -23.9678823 ] } },
{ "type": "Feature", "properties": { "name": "ANAIDE FERREIRA DE SOUZA QUIOSQUE - ME", "situation": "ATIVA", "neighborhood": "BOQUEIRAO", "address": "AV VICENTE DE CARVALHO", "number": "S\/N", "zip_code": "11.045-501", "city": "SANTOS", "state": "SP", "cnpj": "01.226.973\/0001-06", "status": "OK", "additional_address_details": "QUIOSQUE 17 BOX 49", "main_activity": "Serviços ambulantes de alimentação", "latitude": -23.9715583, "longitude": -46.3267506 }, "geometry": { "type": "Point", "coordinates": [ -46.3267506, -23.9715583 ] } },
{ "type": "Feature", "properties": { "name": "SILVERSTONE LOCACAO DE AUTOMOVEIS LTDA", "situation": "ATIVA", "neighborhood": "APARECIDA", "address": "R LIBERDADE", "number": "694", "zip_code": "11.025-032", "city": "SANTOS", "state": "SP", "cnpj": "01.580.754\/0001-20", "status": "OK", "additional_address_details": null, "main_activity": "Serviço de transporte de passageiros - locação de automóveis com motorista", "latitude": -23.973535, "longitude": -46.3005219 }, "geometry": { "type": "Point", "coordinates": [ -46.3005219, -23.973535 ] } },
{ "type": "Feature", "properties": { "name": "AUTO POSTO PORTAL DO GONZAGA LTDA.", "situation": "ATIVA", "neighborhood": "JOSE MENINO", "address": "R BERNARDINO DE CAMPOS", "number": "642", "zip_code": "11.075-001", "city": "SANTOS", "state": "SP", "cnpj": "02.414.807\/0001-04", "status": "OK", "additional_address_details": null, "main_activity": "Comércio varejista de combustíveis para veículos automotores", "latitude": -23.9669421, "longitude": -46.3393997 }, "geometry": { "type": "Point", "coordinates": [ -46.3393997, -23.9669421 ] } },
{ "type": "Feature", "properties": { "name": "MCI COMERCIO DE ALIMENTOS LTDA", "situation": "ATIVA", "neighborhood": "GONZAGA", "address": "AV MARECHAL FLORIANO PEIXOTO", "number": "44", "zip_code": "11.060-910", "city": "SANTOS", "state": "SP", "cnpj": "02.746.722\/0003-87", "status": "OK", "additional_address_details": "QUIOSQUE 16", "main_activity": "Comércio varejista de doces, balas, bombons e semelhantes", "latitude": -23.9670059, "longitude": -46.3367649 }, "geometry": { "type": "Point", "coordinates": [ -46.336764900000013, -23.9670059 ] } },
{ "type": "Feature", "properties": { "name": "AUTO POSTO E CENTRO DE CONVENIENCIA GLICERIO SANTISTA LTDA.", "situation": "ATIVA", "neighborhood": "JOSE MENINO", "address": "AV GENERAL FRANCISCO GLICERIO", "number": "369", "zip_code": "11.065-401", "city": "SANTOS", "state": "SP", "cnpj": "02.839.196\/0001-38", "status": "OK", "additional_address_details": "A 387", "main_activity": "Comércio varejista de combustíveis para veículos automotores", "latitude": -23.9614707, "longitude": -46.337676 }, "geometry": { "type": "Point", "coordinates": [ -46.337676, -23.9614707 ] } },
{ "type": "Feature", "properties": { "name": "JORNAL DIARIO DO LITORAL LTDA - EPP", "situation": "ATIVA", "neighborhood": "CENTRO", "address": "R GENERAL CAMARA", "number": "254", "zip_code": "11.010-122", "city": "SANTOS", "state": "SP", "cnpj": "03.131.150\/0001-22", "status": "OK", "additional_address_details": null, "main_activity": "Edição integrada à impressão de jornais diários", "latitude": -23.9346483, "longitude": -46.322855 }, "geometry": { "type": "Point", "coordinates": [ -46.322855, -23.9346483 ] } },
{ "type": "Feature", "properties": { "name": "PRATO COFFEE SHOP REFEICOES LTDA - EPP", "situation": "ATIVA", "neighborhood": "CENTRO", "address": "R AUGUSTO SEVERO", "number": "09\/11", "zip_code": "11.010-050", "city": "SANTOS", "state": "SP", "cnpj": "03.354.096\/0001-84", "status": "OK", "additional_address_details": null, "main_activity": "Restaurantes e similares", "latitude": -23.9331231, "longitude": -46.3276622 }, "geometry": { "type": "Point", "coordinates": [ -46.3276622, -23.9331231 ] } },
{ "type": "Feature", "properties": { "name": "AUTO POSTO IMOLA DE SANTOS LTDA - EPP", "situation": "ATIVA", "neighborhood": "MACUCO", "address": "R PADRE ANCHIETA", "number": "330", "zip_code": "11.030-120", "city": "SANTOS", "state": "SP", "cnpj": "03.634.262\/0001-04", "status": "OK", "additional_address_details": null, "main_activity": "Comércio varejista de combustíveis para veículos automotores", "latitude": -23.9618507, "longitude": -46.3153573 }, "geometry": { "type": "Point", "coordinates": [ -46.3153573, -23.9618507 ] } },
{ "type": "Feature", "properties": { "name": "MAFIA DI PASTA COMERCIO DE MASSAS LTDA - EPP", "situation": "ATIVA", "neighborhood": "APARECIDA", "address": "R ALEXANDRE MARTINS", "number": "80", "zip_code": "11.025-200", "city": "SANTOS", "state": "SP", "cnpj": "03.782.309\/0001-79", "status": "OK", "additional_address_details": "LOJA 226", "main_activity": "Restaurantes e similares", "latitude": -23.9767542, "longitude": -46.3102633 }, "geometry": { "type": "Point", "coordinates": [ -46.3102633, -23.9767542 ] } },
{ "type": "Feature", "properties": { "name": "CAPRICCIO PIZZARIA EIRELI - ME", "situation": "ATIVA", "neighborhood": "POMPEIA", "address": "AV DR. BERNARDINO DE CAMPOS", "number": "561", "zip_code": "11.065-002", "city": "SANTOS", "state": "SP", "cnpj": "04.457.897\/0001-38", "status": "OK", "additional_address_details": "563", "main_activity": "Restaurantes e similares", "latitude": -23.9639932, "longitude": -46.3384422 }, "geometry": { "type": "Point", "coordinates": [ -46.3384422, -23.9639932 ] } },
{ "type": "Feature", "properties": { "name": "RESTAURANTE LOPES & MENDES LTDA - ME", "situation": "ATIVA", "neighborhood": "VILA MATHIAS", "address": "R PRUDENTE DE MORAIS", "number": "45", "zip_code": "11.075-250", "city": "SANTOS", "state": "SP", "cnpj": "04.698.317\/0001-02", "status": "OK", "additional_address_details": null, "main_activity": "Lanchonetes, casas de chá, de sucos e similares", "latitude": -23.9460896, "longitude": -46.3307061 }, "geometry": { "type": "Point", "coordinates": [ -46.3307061, -23.9460896 ] } },
{ "type": "Feature", "properties": { "name": "GRAFICA E EDITORA DIARIO DO LITORAL LTDA - EPP", "situation": "ATIVA", "neighborhood": "CENTRO", "address": "R GENERAL CAMARA", "number": "254", "zip_code": "11.010-122", "city": "SANTOS", "state": "SP", "cnpj": "04.720.567\/0001-93", "status": "OK", "additional_address_details": "BAIXOS", "main_activity": "Edição integrada à impressão de jornais diários", "latitude": -23.9346483, "longitude": -46.322855 }, "geometry": { "type": "Point", "coordinates": [ -46.322855, -23.9346483 ] } },
{ "type": "Feature", "properties": { "name": "BLD DO BRASIL SERVICOS DE INTERNET LTDA - ME", "situation": "ATIVA", "neighborhood": "BOQUEIRAO", "address": "AV VICENTE DE CARVALHO", "number": "28", "zip_code": "11.045-500", "city": "SANTOS", "state": "SP", "cnpj": "05.026.617\/0001-08", "status": "OK", "additional_address_details": "APT 63 PONTO DE REFERENCIA", "main_activity": "Suporte técnico, manutenção e outros serviços em tecnologia da informação", "latitude": -23.9715775, "longitude": -46.3266539 }, "geometry": { "type": "Point", "coordinates": [ -46.3266539, -23.9715775 ] } },
{ "type": "Feature", "properties": { "name": "OISHISSOU ALIMENTOS LTDA - EPP", "situation": "ATIVA", "neighborhood": "GONZAGA", "address": "AV MARECHAL FLORIANO PEIXOTO", "number": "44", "zip_code": "11.060-300", "city": "SANTOS", "state": "SP", "cnpj": "05.252.122\/0001-99", "status": "OK", "additional_address_details": "LOJAS 109\/110", "main_activity": "Restaurantes e similares", "latitude": -23.9670059, "longitude": -46.3367649 }, "geometry": { "type": "Point", "coordinates": [ -46.336764900000013, -23.9670059 ] } },
{ "type": "Feature", "properties": { "name": "ROSA ESTELA AQUINO ZHUANG PAPELARIA - ME", "situation": "ATIVA", "neighborhood": "GONZAGA", "address": "AV MARECHAL FLORIANO PEIXOTO", "number": "85", "zip_code": "11.060-300", "city": "SANTOS", "state": "SP", "cnpj": "05.561.652\/0001-19", "status": "OK", "additional_address_details": "30 A", "main_activity": "Comércio varejista de artigos de papelaria", "latitude": -23.9672614, "longitude": -46.3358651 }, "geometry": { "type": "Point", "coordinates": [ -46.3358651, -23.9672614 ] } },
{ "type": "Feature", "properties": { "name": "AUTO POSTO JETBEL LTDA", "situation": "ATIVA", "neighborhood": "JABAQUARA", "address": "AV DR. WALDEMAR LEAO", "number": "173", "zip_code": "11.013-601", "city": "SANTOS", "state": "SP", "cnpj": "07.302.973\/0001-24", "status": "OK", "additional_address_details": null, "main_activity": "Comércio varejista de combustíveis para veículos automotores", "latitude": -23.9410372, "longitude": -46.334521 }, "geometry": { "type": "Point", "coordinates": [ -46.334521, -23.9410372 ] } },
{ "type": "Feature", "properties": { "name": "CANAL 4 PIZZA, BAR E RESTAURANTE EIRELI - EPP", "situation": "ATIVA", "neighborhood": "EMBARE", "address": "AV SIQUEIRA CAMPOS", "number": "612", "zip_code": "11.045-200", "city": "SANTOS", "state": "SP", "cnpj": "07.328.976\/0001-37", "status": "OK", "additional_address_details": null, "main_activity": "Restaurantes e similares", "latitude": -23.970635, "longitude": -46.320291 }, "geometry": { "type": "Point", "coordinates": [ -46.320291, -23.970635 ] } },
{ "type": "Feature", "properties": { "name": "CELSO DE PAULA - RESTAURANTE - ME", "situation": "ATIVA", "neighborhood": "JOSE MENINO", "address": "AV MARECHAL FLORIANO PEIXOTO", "number": "304", "zip_code": "11.060-302", "city": "SANTOS", "state": "SP", "cnpj": "08.490.656\/0001-41", "status": "OK", "additional_address_details": null, "main_activity": "Restaurantes e similares", "latitude": -23.9658924, "longitude": -46.3446291 }, "geometry": { "type": "Point", "coordinates": [ -46.344629100000013, -23.9658924 ] } },
{ "type": "Feature", "properties": { "name": "ENFOQUE JORNAL E EDITORA LTDA - ME", "situation": "ATIVA", "neighborhood": "EMBARE", "address": "AV PEDRO LESSA", "number": "3076", "zip_code": "11.025-000", "city": "SANTOS", "state": "SP", "cnpj": "08.627.628\/0001-23", "status": "OK", "additional_address_details": "CONJ 81", "main_activity": "Edição de jornais diários", "latitude": -23.9635224, "longitude": -46.3181628 }, "geometry": { "type": "Point", "coordinates": [ -46.3181628, -23.9635224 ] } },
{ "type": "Feature", "properties": { "name": "PRIMEIRA ESTACAO PIZZARIA E RESTAURANTE LTDA - ME", "situation": "ATIVA", "neighborhood": "EMBARE", "address": "R OSWALDO COCHRANE", "number": "302", "zip_code": "11.040-110", "city": "SANTOS", "state": "SP", "cnpj": "09.208.328\/0001-72", "status": "OK", "additional_address_details": null, "main_activity": "Restaurantes e similares", "latitude": -23.9676858, "longitude": -46.310826 }, "geometry": { "type": "Point", "coordinates": [ -46.310826, -23.9676858 ] } },
{ "type": "Feature", "properties": { "name": "EDUARDO MAIA - ME", "situation": "ATIVA", "neighborhood": "GONZAGA", "address": "AV MARECHAL FLORIANO PEIXOTO", "number": "44", "zip_code": "11.060-300", "city": "SANTOS", "state": "SP", "cnpj": "09.623.816\/0001-46", "status": "OK", "additional_address_details": "AUC 10-A", "main_activity": "Comércio varejista especializado de equipamentos e suprimentos de informática", "latitude": -23.9670059, "longitude": -46.3367649 }, "geometry": { "type": "Point", "coordinates": [ -46.336764900000013, -23.9670059 ] } },
{ "type": "Feature", "properties": { "name": "HOTELARIA ACCOR BRASIL S\/A", "situation": "ATIVA", "neighborhood": "BOQUEIRAO", "address": "AV VICENTE DE CARVALHO", "number": "50", "zip_code": "11.045-500", "city": "SANTOS", "state": "SP", "cnpj": "09.967.852\/0122-14", "status": "OK", "additional_address_details": "TORRE II", "main_activity": "Hotéis", "latitude": -23.970119, "longitude": -46.3288889 }, "geometry": { "type": "Point", "coordinates": [ -46.3288889, -23.970119 ] } },
{ "type": "Feature", "properties": { "name": "HOTELARIA ACCOR BRASIL S\/A", "situation": "ATIVA", "neighborhood": "BOQUEIRAO", "address": "AV VICENTE DE CARVALHO", "number": "50", "zip_code": "11.045-500", "city": "SANTOS", "state": "SP", "cnpj": "09.967.852\/0127-29", "status": "OK", "additional_address_details": "TORRE I", "main_activity": "Apart-hotéis", "latitude": -23.970119, "longitude": -46.3288889 }, "geometry": { "type": "Point", "coordinates": [ -46.3288889, -23.970119 ] } },
{ "type": "Feature", "properties": { "name": "AUTO POSTO NAUTICA CANAL 2 LTDA - ME", "situation": "ATIVA", "neighborhood": "VILA BELMIRO", "address": "AV DOUTOR BERNADINO DE CAMPOS", "number": "303", "zip_code": "11.065-001", "city": "SANTOS", "state": "SP", "cnpj": "10.437.514\/0001-62", "status": "OK", "additional_address_details": "313", "main_activity": "Comércio varejista de combustíveis para veículos automotores", "latitude": -23.956105, "longitude": -46.3375494 }, "geometry": { "type": "Point", "coordinates": [ -46.3375494, -23.956105 ] } },
{ "type": "Feature", "properties": { "name": "AUTO POSTO ESTRELA SANTISTA LTDA - ME", "situation": "ATIVA", "neighborhood": "MACUCO", "address": "R AFONSO PENA", "number": "240", "zip_code": "11.020-000", "city": "SANTOS", "state": "SP", "cnpj": "10.517.064\/0001-18", "status": "OK", "additional_address_details": null, "main_activity": "Comércio varejista de combustíveis para veículos automotores", "latitude": -23.9630211, "longitude": -46.3141282 }, "geometry": { "type": "Point", "coordinates": [ -46.3141282, -23.9630211 ] } },
{ "type": "Feature", "properties": { "name": "GRAN MIRAMAR COMERCIO DE ALIMENTOS LTDA. - EPP", "situation": "ATIVA", "neighborhood": "GONZAGA", "address": "AV MARECHAL FLORIANO PEIXOTO", "number": "44", "zip_code": "11.060-910", "city": "SANTOS", "state": "SP", "cnpj": "10.924.393\/0001-83", "status": "OK", "additional_address_details": "SUC 115", "main_activity": "Lanchonetes, casas de chá, de sucos e similares", "latitude": -23.9670059, "longitude": -46.3367649 }, "geometry": { "type": "Point", "coordinates": [ -46.336764900000013, -23.9670059 ] } },
{ "type": "Feature", "properties": { "name": "AUTO POSTO M. POWER LTDA", "situation": "ATIVA", "neighborhood": "GONZAGA", "address": "AV FRANCISCO GLICERIO", "number": "135", "zip_code": "11.065-401", "city": "SANTOS", "state": "SP", "cnpj": "11.074.078\/0001-77", "status": "OK", "additional_address_details": null, "main_activity": "Comércio varejista de combustíveis para veículos automotores", "latitude": -23.9582394, "longitude": -46.3290414 }, "geometry": { "type": "Point", "coordinates": [ -46.3290414, -23.9582394 ] } },
{ "type": "Feature", "properties": { "name": "FERNANDA VELASQUE DA SILVA - RESTAURANTE - ME", "situation": "ATIVA", "neighborhood": "APARECIDA", "address": "R ALEXANDRE MARTINS", "number": "80", "zip_code": "11.025-200", "city": "SANTOS", "state": "SP", "cnpj": "11.140.939\/0001-78", "status": "OK", "additional_address_details": "LOJA 237", "main_activity": "Restaurantes e similares", "latitude": -23.9767542, "longitude": -46.3102633 }, "geometry": { "type": "Point", "coordinates": [ -46.3102633, -23.9767542 ] } },
{ "type": "Feature", "properties": { "name": "HOTEL E POUSADA CANTINHO DA PRAIA LTDA - EPP", "situation": "ATIVA", "neighborhood": "JOSE MENINO", "address": "AV BERNARDINO DE CAMPOS", "number": "637", "zip_code": "11.065-003", "city": "SANTOS", "state": "SP", "cnpj": "11.736.349\/0001-02", "status": "OK", "additional_address_details": null, "main_activity": "Hotéis", "latitude": -23.9663324, "longitude": -46.338752 }, "geometry": { "type": "Point", "coordinates": [ -46.338752, -23.9663324 ] } },
{ "type": "Feature", "properties": { "name": "AUTO POSTO FORENSE LTDA", "situation": "ATIVA", "neighborhood": "VILA NOVA", "address": "R BRAZ CUBAS", "number": "143", "zip_code": "11.013-163", "city": "SANTOS", "state": "SP", "cnpj": "12.231.424\/0001-46", "status": "OK", "additional_address_details": null, "main_activity": "Comércio varejista de combustíveis para veículos automotores", "latitude": -23.9387015, "longitude": -46.3247503 }, "geometry": { "type": "Point", "coordinates": [ -46.3247503, -23.9387015 ] } },
{ "type": "Feature", "properties": { "name": "YACAMIM FOOD SERVICE REFEICOES LTDA - ME", "situation": "ATIVA", "neighborhood": "APARECIDA", "address": "R ALEXANDRE MARTINS", "number": "80", "zip_code": "11.025-200", "city": "SANTOS", "state": "SP", "cnpj": "12.606.648\/0001-95", "status": "OK", "additional_address_details": "LOJA 227-A", "main_activity": "Restaurantes e similares", "latitude": -23.9767542, "longitude": -46.3102633 }, "geometry": { "type": "Point", "coordinates": [ -46.3102633, -23.9767542 ] } },
{ "type": "Feature", "properties": { "name": "EMPORIO BOLSHOI LTDA - EPP", "situation": "ATIVA", "neighborhood": "POMPEIA", "address": "PC BENEDITO CALIXTO", "number": "15", "zip_code": "11.065-440", "city": "SANTOS", "state": "SP", "cnpj": "12.924.354\/0001-01", "status": "OK", "additional_address_details": null, "main_activity": "Comércio varejista de mercadorias em geral, com predominância de produtos alimentícios - minimercados, mercearias e armazéns", "latitude": -23.9665048, "longitude": -46.3421313 }, "geometry": { "type": "Point", "coordinates": [ -46.3421313, -23.96650480000001 ] } },
{ "type": "Feature", "properties": { "name": "LET S WOK RESTAURANTE LTDA - ME", "situation": "ATIVA", "neighborhood": "GONZAGA", "address": "AV ANA COSTA", "number": "465", "zip_code": "11.060-003", "city": "SANTOS", "state": "SP", "cnpj": "13.011.257\/0001-90", "status": "OK", "additional_address_details": "LOJA 411 - 04 PISO", "main_activity": "Restaurantes e similares", "latitude": -23.9649838, "longitude": -46.3321581 }, "geometry": { "type": "Point", "coordinates": [ -46.3321581, -23.9649838 ] } },
{ "type": "Feature", "properties": { "name": "DARMO PUBLICIDADE LTDA - EPP", "situation": "ATIVA", "neighborhood": "APARECIDA", "address": "AV PEDRO LESSA", "number": "1890", "zip_code": "11.025-002", "city": "SANTOS", "state": "SP", "cnpj": "13.261.225\/0001-43", "status": "OK", "additional_address_details": "CONJ: 54;", "main_activity": "Agências de publicidade", "latitude": -23.9707068, "longitude": -46.3094767 }, "geometry": { "type": "Point", "coordinates": [ -46.309476700000012, -23.9707068 ] } },
{ "type": "Feature", "properties": { "name": "CASSIO & BUENO EDITORA LTDA - ME", "situation": "ATIVA", "neighborhood": "VILA BELMIRO", "address": "AV BERNARDINO DE CAMPOS", "number": "18", "zip_code": "11.065-000", "city": "SANTOS", "state": "SP", "cnpj": "13.342.109\/0001-59", "status": "OK", "additional_address_details": "SALA 409", "main_activity": "Outras atividades de publicidade não especificadas anteriormente", "latitude": -23.9488457, "longitude": -46.3369698 }, "geometry": { "type": "Point", "coordinates": [ -46.3369698, -23.9488457 ] } },
{ "type": "Feature", "properties": { "name": "THIAGO FERREIRA DOS SANTOS - LANCHONETE - ME", "situation": "ATIVA", "neighborhood": "JABAQUARA", "address": "AV DOUTOR CLAUDIO LUIS DA COSTA", "number": "291", "zip_code": "11.075-101", "city": "SANTOS", "state": "SP", "cnpj": "13.366.013\/0001-20", "status": "OK", "additional_address_details": null, "main_activity": "Comércio varejista de mercadorias em lojas de conveniência", "latitude": -23.9458523, "longitude": -46.3351061 }, "geometry": { "type": "Point", "coordinates": [ -46.3351061, -23.9458523 ] } },
{ "type": "Feature", "properties": { "name": "O. G. MARTINS PIZZAS LTDA - EPP", "situation": "ATIVA", "neighborhood": "JOSE MENINO", "address": "AV SENADOR PINHEIRO MACHADO", "number": "973", "zip_code": "11.075-003", "city": "SANTOS", "state": "SP", "cnpj": "13.577.365\/0001-25", "status": "OK", "additional_address_details": null, "main_activity": "Fornecimento de alimentos preparados preponderantemente para consumo domiciliar", "latitude": -23.9656339, "longitude": -46.3455138 }, "geometry": { "type": "Point", "coordinates": [ -46.3455138, -23.9656339 ] } },
{ "type": "Feature", "properties": { "name": "BOX GONZAGA COMERCIO DE ALIMENTOS EIRELI", "situation": "ATIVA", "neighborhood": "GONZAGA", "address": "AV MARECHAL FLORIANO PEIXOTO", "number": "67", "zip_code": "11.060-301", "city": "SANTOS", "state": "SP", "cnpj": "13.955.855\/0001-18", "status": "OK", "additional_address_details": "LOJA 56", "main_activity": "Restaurantes e similares", "latitude": -23.9672106, "longitude": -46.3352276 }, "geometry": { "type": "Point", "coordinates": [ -46.3352276, -23.9672106 ] } },
{ "type": "Feature", "properties": { "name": "VITSHOP SUPLEMENTOS ALIMENTARES LTDA. - EPP", "situation": "ATIVA", "neighborhood": "BOQUEIRAO", "address": "R MATO GROSSO", "number": "418", "zip_code": "11.055-010", "city": "SANTOS", "state": "SP", "cnpj": "14.698.805\/0001-65", "status": "OK", "additional_address_details": null, "main_activity": "Comércio varejista de produtos alimentícios em geral ou especializado em produtos alimentícios não especificados anteriormente", "latitude": -23.9645029, "longitude": -46.3277744 }, "geometry": { "type": "Point", "coordinates": [ -46.3277744, -23.9645029 ] } },
{ "type": "Feature", "properties": { "name": "LOCALIZA RENT A CAR SA", "situation": "ATIVA", "neighborhood": "VILA MATIAS", "address": "AV ANA COSTA", "number": "304", "zip_code": "11.060-000", "city": "SANTOS", "state": "SP", "cnpj": "16.670.085\/0135-67", "status": "OK", "additional_address_details": null, "main_activity": "Locação de automóveis sem condutor", "latitude": -23.9573689, "longitude": -46.3319152 }, "geometry": { "type": "Point", "coordinates": [ -46.3319152, -23.9573689 ] } },
{ "type": "Feature", "properties": { "name": "ARCOS DOURADOS COMERCIO DE ALIMENTOS LTDA", "situation": "ATIVA", "neighborhood": "JABAQUARA", "address": "R DR. CLAUDIO LUIZ DA COSTA", "number": "129", "zip_code": "11.075-101", "city": "SANTOS", "state": "SP", "cnpj": "42.591.651\/0905-41", "status": "OK", "additional_address_details": null, "main_activity": "Lanchonetes, casas de chá, de sucos e similares", "latitude": -23.9443138, "longitude": -46.3348519 }, "geometry": { "type": "Point", "coordinates": [ -46.3348519, -23.9443138 ] } },
{ "type": "Feature", "properties": { "name": "KALUNGA COMERCIO E INDUSTRIA GRAFICA LTDA", "situation": "ATIVA", "neighborhood": "GONZAGA", "address": "AV ANA COSTA", "number": "364", "zip_code": "11.060-002", "city": "SANTOS", "state": "SP", "cnpj": "43.283.811\/0036-80", "status": "OK", "additional_address_details": null, "main_activity": "Comércio atacadista de artigos de escritório e de papelaria", "latitude": -23.9598415, "longitude": -46.3323603 }, "geometry": { "type": "Point", "coordinates": [ -46.3323603, -23.9598415 ] } },
{ "type": "Feature", "properties": { "name": "AUTO POSTO ARRASTAO LIMITADA", "situation": "ATIVA", "neighborhood": "VALONGO", "address": "R CRISTIANO OTTONI", "number": "56", "zip_code": "11.010-280", "city": "SANTOS", "state": "SP", "cnpj": "44.980.530\/0001-19", "status": "OK", "additional_address_details": null, "main_activity": "Comércio varejista de combustíveis para veículos automotores", "latitude": -23.92982, "longitude": -46.3351822 }, "geometry": { "type": "Point", "coordinates": [ -46.335182200000013, -23.92982 ] } },
{ "type": "Feature", "properties": { "name": "SUPER POSTO 200 MILHAS LTDA", "situation": "ATIVA", "neighborhood": "MACUCO", "address": "AV SIQUEIRA CAMPOS", "number": "393", "zip_code": "11.045-201", "city": "SANTOS", "state": "SP", "cnpj": "45.046.794\/0001-62", "status": "OK", "additional_address_details": null, "main_activity": "Comércio varejista de combustíveis para veículos automotores", "latitude": -23.9631572, "longitude": -46.3188259 }, "geometry": { "type": "Point", "coordinates": [ -46.3188259, -23.9631572 ] } },
{ "type": "Feature", "properties": { "name": "KWOK & KWOK LTDA - ME", "situation": "ATIVA", "neighborhood": "GONZAGA", "address": "R MARCILIO DIAS", "number": "33", "zip_code": "11.060-210", "city": "SANTOS", "state": "SP", "cnpj": "46.170.510\/0001-08", "status": "OK", "additional_address_details": null, "main_activity": "Restaurantes e similares", "latitude": -23.9683486, "longitude": -46.3340604 }, "geometry": { "type": "Point", "coordinates": [ -46.3340604, -23.9683486 ] } },
{ "type": "Feature", "properties": { "name": "COMERCIAL ALVORADA CENTER LTDA - EPP", "situation": "ATIVA", "neighborhood": "BOQUEIRAO", "address": "AV AFONSO PENA", "number": "55", "zip_code": "11.020-001", "city": "SANTOS", "state": "SP", "cnpj": "46.198.081\/0001-87", "status": "OK", "additional_address_details": null, "main_activity": "Comércio varejista de combustíveis para veículos automotores", "latitude": -23.9584462, "longitude": -46.3204196 }, "geometry": { "type": "Point", "coordinates": [ -46.3204196, -23.9584462 ] } },
{ "type": "Feature", "properties": { "name": "COMPANHIA BRASILEIRA DE DISTRIBUICAO", "situation": "ATIVA", "neighborhood": "GONZAGA", "address": "AV ANA COSTA", "number": "318", "zip_code": "11.060-000", "city": "SANTOS", "state": "SP", "cnpj": "47.508.411\/1152-12", "status": "OK", "additional_address_details": "340", "main_activity": "Comércio varejista de mercadorias em geral, com predominância de produtos alimentícios - hipermercados", "latitude": -23.9582212, "longitude": -46.3318448 }, "geometry": { "type": "Point", "coordinates": [ -46.3318448, -23.9582212 ] } },
{ "type": "Feature", "properties": { "name": "AUTO POSTO JABUCA LTDA - EPP", "situation": "ATIVA", "neighborhood": "JABAQUARA", "address": "AV DR WALDEMAR LEAO", "number": "280", "zip_code": "11.013-600", "city": "SANTOS", "state": "SP", "cnpj": "47.773.510\/0001-65", "status": "OK", "additional_address_details": null, "main_activity": "Comércio varejista de combustíveis para veículos automotores", "latitude": -23.9417171, "longitude": -46.3348124 }, "geometry": { "type": "Point", "coordinates": [ -46.3348124, -23.9417171 ] } },
{ "type": "Feature", "properties": { "name": "VILLE ATLANTICO HOTEIS E TURISMO LTDA", "situation": "ATIVA", "neighborhood": "GONZAGA", "address": "AV PRESIDENTE WILSON", "number": "1", "zip_code": "11.065-200", "city": "SANTOS", "state": "SP", "cnpj": "51.647.584\/0001-22", "status": "OK", "additional_address_details": null, "main_activity": "Hotéis", "latitude": -23.9695127, "longitude": -46.3332033 }, "geometry": { "type": "Point", "coordinates": [ -46.3332033, -23.9695127 ] } },
{ "type": "Feature", "properties": { "name": "LANCHES BARTONS LTDA - ME", "situation": "ATIVA", "neighborhood": "GONZAGA", "address": "AV ANA COSTA", "number": "530", "zip_code": "11.060-002", "city": "SANTOS", "state": "SP", "cnpj": "52.455.276\/0001-68", "status": "OK", "additional_address_details": "LOJA 37-F", "main_activity": "Lanchonetes, casas de chá, de sucos e similares", "latitude": -23.9666742, "longitude": -46.3332362 }, "geometry": { "type": "Point", "coordinates": [ -46.3332362, -23.9666742 ] } },
{ "type": "Feature", "properties": { "name": "MENDES HOTEIS TURISMO E ADMINISTRADORA LTDA", "situation": "ATIVA", "neighborhood": "GONZAGA", "address": "AV MARECHAL FLORIANO PEIXOTO", "number": "42", "zip_code": "11.060-300", "city": "SANTOS", "state": "SP", "cnpj": "56.067.705\/0001-80", "status": "OK", "additional_address_details": null, "main_activity": "Hotéis", "latitude": -23.9671316, "longitude": -46.3343416 }, "geometry": { "type": "Point", "coordinates": [ -46.334341599999988, -23.9671316 ] } },
{ "type": "Feature", "properties": { "name": "CHURRASCARIA O COSTELAO DE SANTOS LTDA - EPP", "situation": "ATIVA", "neighborhood": "VILA MATHIAS", "address": "AV SEN PINHEIRO MACHADO", "number": "129", "zip_code": "11.075-001", "city": "SANTOS", "state": "SP", "cnpj": "57.074.072\/0001-09", "status": "OK", "additional_address_details": null, "main_activity": "Restaurantes e similares", "latitude": -23.9661824, "longitude": -46.3460533 }, "geometry": { "type": "Point", "coordinates": [ -46.3460533, -23.9661824 ] } },
{ "type": "Feature", "properties": { "name": "AO CHOPP DO GONZAGA LTDA - ME", "situation": "ATIVA", "neighborhood": "GONZAGA", "address": "AV ANA COSTA", "number": "510", "zip_code": "11.060-002", "city": "SANTOS", "state": "SP", "cnpj": "58.128.125\/0001-81", "status": "OK", "additional_address_details": "512", "main_activity": "Restaurantes e similares", "latitude": -23.9659747, "longitude": -46.3329275 }, "geometry": { "type": "Point", "coordinates": [ -46.3329275, -23.9659747 ] } },
{ "type": "Feature", "properties": { "name": "LANCHES CAICARA DA ANA COSTA LTDA - EPP", "situation": "ATIVA", "neighborhood": "GONZAGA", "address": "AV ANA COSTA", "number": "352", "zip_code": "11.060-002", "city": "SANTOS", "state": "SP", "cnpj": "58.129.156\/0001-57", "status": "OK", "additional_address_details": "354", "main_activity": "Restaurantes e similares", "latitude": -23.9596677, "longitude": -46.3321428 }, "geometry": { "type": "Point", "coordinates": [ -46.3321428, -23.9596677 ] } },
{ "type": "Feature", "properties": { "name": "RESTAURANTE ALMEIDA DE SANTOS LTDA - EPP", "situation": "ATIVA", "neighborhood": "VILA MATIAS", "address": "AV ANA COSTA", "number": "1", "zip_code": "11.060-001", "city": "SANTOS", "state": "SP", "cnpj": "58.132.093\/0001-98", "status": "OK", "additional_address_details": null, "main_activity": "Restaurantes e similares", "latitude": -23.9431636, "longitude": -46.3298643 }, "geometry": { "type": "Point", "coordinates": [ -46.3298643, -23.9431636 ] } },
{ "type": "Feature", "properties": { "name": "AGENCIA DE TURISMO VASCO DA GAMA LTDA - EPP", "situation": "ATIVA", "neighborhood": "CENTRO", "address": "R XV DE NOVEMBRO", "number": "16", "zip_code": "11.010-150", "city": "SANTOS", "state": "SP", "cnpj": "58.133.323\/0001-33", "status": "OK", "additional_address_details": null, "main_activity": "Agências de viagens", "latitude": -23.9335869, "longitude": -46.331398 }, "geometry": { "type": "Point", "coordinates": [ -46.331398, -23.9335869 ] } },
{ "type": "Feature", "properties": { "name": "AUTO SERVICOS INDAIA LTDA.", "situation": "ATIVA", "neighborhood": "VILA BELMIRO", "address": "AV SEN. PINHEIRO MACHADO", "number": "605", "zip_code": "11.075-001", "city": "SANTOS", "state": "SP", "cnpj": "58.134.842\/0001-16", "status": "OK", "additional_address_details": null, "main_activity": "Comércio varejista de combustíveis para veículos automotores", "latitude": -23.9544698, "longitude": -46.3440519 }, "geometry": { "type": "Point", "coordinates": [ -46.3440519, -23.9544698 ] } },
{ "type": "Feature", "properties": { "name": "RESTAURANTE PAULISTA LTDA - EPP", "situation": "ATIVA", "neighborhood": "CENTRO", "address": "PC RUI BARBOSA", "number": "8", "zip_code": "11.010-130", "city": "SANTOS", "state": "SP", "cnpj": "58.139.569\/0001-12", "status": "OK", "additional_address_details": null, "main_activity": "Restaurantes e similares", "latitude": -23.933664, "longitude": -46.3304507 }, "geometry": { "type": "Point", "coordinates": [ -46.3304507, -23.933664 ] } },
{ "type": "Feature", "properties": { "name": "PADARIA E CONFEITARIA KARICIA LTDA - EPP", "situation": "ATIVA", "neighborhood": "BOQUEIRAO", "address": "R MINAS GERAIS", "number": "61", "zip_code": "11.055-101", "city": "SANTOS", "state": "SP", "cnpj": "58.146.002\/0001-73", "status": "OK", "additional_address_details": null, "main_activity": "Fabricação de produtos de padaria e confeitaria com predominância de produção própria", "latitude": -23.9682135, "longitude": -46.3265515 }, "geometry": { "type": "Point", "coordinates": [ -46.3265515, -23.9682135 ] } },
{ "type": "Feature", "properties": { "name": "CAFE CARIOCA LIMITADA - EPP", "situation": "ATIVA", "neighborhood": "CENTRO", "address": "PC VISCONDE DE MAUA", "number": "1\/2", "zip_code": "11.010-000", "city": "SANTOS", "state": "SP", "cnpj": "58.151.531\/0001-65", "status": "OK", "additional_address_details": "\/2", "main_activity": "Lanchonetes, casas de chá, de sucos e similares", "latitude": -23.9332721, "longitude": -46.3294345 }, "geometry": { "type": "Point", "coordinates": [ -46.3294345, -23.9332721 ] } },
{ "type": "Feature", "properties": { "name": "AUTO POSTO SANTA RITA LTDA", "situation": "ATIVA", "neighborhood": "VILA BELMIRO", "address": "R JOAQUIM TAVORA", "number": "160", "zip_code": "11.075-300", "city": "SANTOS", "state": "SP", "cnpj": "58.158.486\/0001-70", "status": "OK", "additional_address_details": null, "main_activity": "Comércio varejista de combustíveis para veículos automotores", "latitude": -23.9491218, "longitude": -46.3312735 }, "geometry": { "type": "Point", "coordinates": [ -46.331273499999988, -23.9491218 ] } },
{ "type": "Feature", "properties": { "name": "AUTO POSTO FERRY BOAT LTDA", "situation": "ATIVA", "neighborhood": "PONTA DA PRAIA", "address": "AV HENRIQUE SOLER", "number": "327", "zip_code": "11.030-011", "city": "SANTOS", "state": "SP", "cnpj": "58.163.585\/0001-40", "status": "OK", "additional_address_details": null, "main_activity": "Comércio varejista de combustíveis para veículos automotores", "latitude": -23.9852986, "longitude": -46.2954638 }, "geometry": { "type": "Point", "coordinates": [ -46.2954638, -23.9852986 ] } },
{ "type": "Feature", "properties": { "name": "RESTAURANTE SANTA ELZA LTDA - ME", "situation": "ATIVA", "neighborhood": "MACUCO", "address": "AV SENADOR DANTAS", "number": "359", "zip_code": "11.015-211", "city": "SANTOS", "state": "SP", "cnpj": "58.165.150\/0001-35", "status": "OK", "additional_address_details": null, "main_activity": "Restaurantes e similares", "latitude": -23.9629389, "longitude": -46.3139451 }, "geometry": { "type": "Point", "coordinates": [ -46.3139451, -23.9629389 ] } },
{ "type": "Feature", "properties": { "name": "BARAZAL & CIA LTDA. - ME", "situation": "ATIVA", "neighborhood": "CENTRO", "address": "AV SAO FRANCISCO", "number": "210", "zip_code": "11.013-300", "city": "SANTOS", "state": "SP", "cnpj": "58.166.398\/0001-10", "status": "OK", "additional_address_details": null, "main_activity": "Restaurantes e similares", "latitude": -23.9376047, "longitude": -46.3259692 }, "geometry": { "type": "Point", "coordinates": [ -46.3259692, -23.9376047 ] } },
{ "type": "Feature", "properties": { "name": "PANIFICADORA ROXY LTDA - EPP", "situation": "ATIVA", "neighborhood": "JOSE MENINO", "address": "AV SENADOR PINHEIRO MACHADO", "number": "997", "zip_code": "11.075-003", "city": "SANTOS", "state": "SP", "cnpj": "58.166.430\/0001-68", "status": "OK", "additional_address_details": null, "main_activity": "Padaria e confeitaria com predominância de revenda", "latitude": -23.9658347, "longitude": -46.3455359 }, "geometry": { "type": "Point", "coordinates": [ -46.345535899999987, -23.9658347 ] } },
{ "type": "Feature", "properties": { "name": "LANCHES GOIAS LTDA - ME", "situation": "ATIVA", "neighborhood": "GONZAGA", "address": "AV WASHINGTON LUIZ", "number": "371", "zip_code": "11.055-000", "city": "SANTOS", "state": "SP", "cnpj": "58.166.562\/0001-90", "status": "OK", "additional_address_details": null, "main_activity": "Lanchonetes, casas de chá, de sucos e similares", "latitude": -23.9610719, "longitude": -46.3280089 }, "geometry": { "type": "Point", "coordinates": [ -46.3280089, -23.9610719 ] } },
{ "type": "Feature", "properties": { "name": "AUTO POSTO PEDRO LESSA LIMITADA", "situation": "ATIVA", "neighborhood": "EMBARE", "address": "AV PEDRO LESSA", "number": "2231", "zip_code": "11.025-003", "city": "SANTOS", "state": "SP", "cnpj": "58.186.198\/0001-20", "status": "OK", "additional_address_details": null, "main_activity": "Comércio varejista de combustíveis para veículos automotores", "latitude": -23.9690598, "longitude": -46.3122358 }, "geometry": { "type": "Point", "coordinates": [ -46.3122358, -23.9690598 ] } },
{ "type": "Feature", "properties": { "name": "ESTEVEZ & ESTEVEZ COMERCIO E SERVICOS AUTOMOTIVOS LTDA", "situation": "ATIVA", "neighborhood": "PONTA DA PRAIA", "address": "R PROF.ARIST.DE MENEZES", "number": "36", "zip_code": "11.035-000", "city": "SANTOS", "state": "SP", "cnpj": "58.190.083\/0001-09", "status": "OK", "additional_address_details": null, "main_activity": "Comércio varejista de combustíveis para veículos automotores", "latitude": -23.9821374, "longitude": -46.2999354 }, "geometry": { "type": "Point", "coordinates": [ -46.2999354, -23.9821374 ] } },
{ "type": "Feature", "properties": { "name": "HS HENKE - EPP", "situation": "ATIVA", "neighborhood": "GONZAGA", "address": "AV MAL FLORIANO PEIXOTO", "number": "56", "zip_code": "11.060-300", "city": "SANTOS", "state": "SP", "cnpj": "58.195.876\/0001-10", "status": "OK", "additional_address_details": null, "main_activity": "Fabricação de produtos de padaria e confeitaria com predominância de produção própria", "latitude": -23.9670029, "longitude": -46.3347535 }, "geometry": { "type": "Point", "coordinates": [ -46.3347535, -23.9670029 ] } },
{ "type": "Feature", "properties": { "name": "AUTO POSTO DA BALANCA LTDA", "situation": "ATIVA", "neighborhood": "VALONGO", "address": "PC LIONS CLUB", "number": "01", "zip_code": "11.010-320", "city": "SANTOS", "state": "SP", "cnpj": "58.199.522\/0001-44", "status": "OK", "additional_address_details": null, "main_activity": "Comércio varejista de combustíveis para veículos automotores", "latitude": -23.9317777, "longitude": -46.3372243 }, "geometry": { "type": "Point", "coordinates": [ -46.3372243, -23.9317777 ] } },
{ "type": "Feature", "properties": { "name": "VIEIRA GASTRONOMIA LTDA. - EPP - EPP", "situation": "ATIVA", "neighborhood": "GONZAGA", "address": "AV ANA COSTA", "number": "404", "zip_code": "11.060-002", "city": "SANTOS", "state": "SP", "cnpj": "58.208.430\/0001-83", "status": "OK", "additional_address_details": null, "main_activity": "Restaurantes e similares", "latitude": -23.9620928, "longitude": -46.3324948 }, "geometry": { "type": "Point", "coordinates": [ -46.3324948, -23.9620928 ] } },
{ "type": "Feature", "properties": { "name": "SUPER POSTO QUINHENTAS MILHAS LTDA.", "situation": "ATIVA", "neighborhood": "CAMPO GRANDE", "address": "R DR CARVALHO DE MENDONCA", "number": "301", "zip_code": "11.070-101", "city": "SANTOS", "state": "SP", "cnpj": "58.259.805\/0001-34", "status": "OK", "additional_address_details": null, "main_activity": "Comércio varejista de combustíveis para veículos automotores", "latitude": -23.9531137, "longitude": -46.3337231 }, "geometry": { "type": "Point", "coordinates": [ -46.3337231, -23.9531137 ] } },
{ "type": "Feature", "properties": { "name": "ESTACIONAMENTO GONZAGA S\/S LTDA. - ME", "situation": "ATIVA", "neighborhood": "GONZAGA", "address": "R CLAUDIO DORNEAUX", "number": "54", "zip_code": "11.055-000", "city": "SANTOS", "state": "SP", "cnpj": "60.016.185\/0001-54", "status": "OK", "additional_address_details": null, "main_activity": "Estacionamento de veículos", "latitude": -23.9657572, "longitude": -46.3333978 }, "geometry": { "type": "Point", "coordinates": [ -46.3333978, -23.9657572 ] } },
{ "type": "Feature", "properties": { "name": "LANCHES BEDUINO SHOPPING LTDA - EPP", "situation": "ATIVA", "neighborhood": "GONZAGA", "address": "AV MARL FLORIANO PEIXOTO", "number": "44", "zip_code": "11.060-000", "city": "SANTOS", "state": "SP", "cnpj": "60.567.088\/0001-50", "status": "OK", "additional_address_details": "LOJA 113 2 PISO", "main_activity": "Lanchonetes, casas de chá, de sucos e similares", "latitude": -23.9670059, "longitude": -46.3367649 }, "geometry": { "type": "Point", "coordinates": [ -46.336764900000013, -23.9670059 ] } },
{ "type": "Feature", "properties": { "name": "RESTAURANTE TAMARIZ LTDA - ME", "situation": "ATIVA", "neighborhood": "JOSE MENINO", "address": "AV PRESIDENTE WILSON", "number": "88", "zip_code": "11.065-200", "city": "SANTOS", "state": "SP", "cnpj": "67.192.716\/0001-09", "status": "OK", "additional_address_details": null, "main_activity": "Restaurantes e similares", "latitude": -23.967889, "longitude": -46.3422793 }, "geometry": { "type": "Point", "coordinates": [ -46.3422793, -23.967889 ] } },
{ "type": "Feature", "properties": { "name": "CANTINA E PIZZARIA NOVA STROMBOLI EIRELI", "situation": "ATIVA", "neighborhood": "GONZAGA", "address": "PC FERNANDES PACHECO", "number": "41", "zip_code": "11.060-410", "city": "SANTOS", "state": "SP", "cnpj": "67.623.108\/0001-01", "status": "OK", "additional_address_details": null, "main_activity": "Restaurantes e similares", "latitude": -23.963264, "longitude": -46.3359506 }, "geometry": { "type": "Point", "coordinates": [ -46.3359506, -23.963264 ] } },
{ "type": "Feature", "properties": { "name": "POST & OFFICE - SERVICOS TELEMATICOS LTDA - EPP", "situation": "ATIVA", "neighborhood": "PONTA DA PRAIA", "address": "R VEREADOR HENRIQUE SOLER", "number": "295", "zip_code": "11.030-011", "city": "SANTOS", "state": "SP", "cnpj": "68.015.478\/0001-29", "status": "OK", "additional_address_details": null, "main_activity": "Atividades de franqueadas do Correio Nacional", "latitude": -23.9847303, "longitude": -46.2956716 }, "geometry": { "type": "Point", "coordinates": [ -46.295671600000013, -23.98473030000001 ] } },
{ "type": "Feature", "properties": { "name": "MARE MANSA RESTAURANTE E CHOPERIA LTDA - EPP", "situation": "ATIVA", "neighborhood": "GONZAGA", "address": "AV PRESIDENTE WILSON", "number": "9", "zip_code": "11.065-200", "city": "SANTOS", "state": "SP", "cnpj": "68.965.946\/0001-26", "status": "OK", "additional_address_details": null, "main_activity": "Restaurantes e similares", "latitude": -23.9692595, "longitude": -46.3341428 }, "geometry": { "type": "Point", "coordinates": [ -46.3341428, -23.9692595 ] } },
{ "type": "Feature", "properties": { "name": "PORTEMAR SERVICOS LTDA.", "situation": "ATIVA", "neighborhood": "GONZAGA", "address": "AV DONA ANA COSTA", "number": "470", "zip_code": "11.060-002", "city": "SANTOS", "state": "SP", "cnpj": "71.545.305\/0001-27", "status": "OK", "additional_address_details": null, "main_activity": "Atividades de franqueadas do Correio Nacional", "latitude": -23.9650905, "longitude": -46.3326752 }, "geometry": { "type": "Point", "coordinates": [ -46.3326752, -23.9650905 ] } },
{ "type": "Feature", "properties": { "name": "VAN GOGH CHOPERIA & PIZZARIA LTDA", "situation": "ATIVA", "neighborhood": "JOSE MENINO", "address": "AV MAL FLORIANO PEIXOTO", "number": "314", "zip_code": "11.060-302", "city": "SANTOS", "state": "SP", "cnpj": "72.810.443\/0001-59", "status": "OK", "additional_address_details": null, "main_activity": "Restaurantes e similares", "latitude": -23.9658373, "longitude": -46.3451203 }, "geometry": { "type": "Point", "coordinates": [ -46.3451203, -23.9658373 ] } },
{ "type": "Feature", "properties": { "name": "PARK & WASH COMERCIO E GARAGEM LTDA - ME", "situation": "ATIVA", "neighborhood": "GONZAGA", "address": "R MARCILIO DIAS", "number": "18\/24", "zip_code": "11.060-210", "city": "SANTOS", "state": "SP", "cnpj": "49.189.905\/0001-40", "status": "OK", "additional_address_details": null, "main_activity": "Outras atividades de serviços pessoais não especificadas anteriormente", "latitude": -23.9677149, "longitude": -46.3340644 }, "geometry": { "type": "Point", "coordinates": [ -46.3340644, -23.9677149 ] } }
]
}
